City_ID,City,Lat,Lng,Max Temp,Humidity,Cloudiness,Wind Speed,Country,Date
0,saint-joseph,-21.3667,55.6167,297.86,82,44,0.63,RE,1699653015
1,palikir - national government center,6.9248,158.1611,298.56,89,100,0.0,FM,1699653015
2,ilulissat,69.2167,-51.1,267.16,53,100,8.75,GL,1699653016
3,jamestown,42.097,-79.2353,282.92,62,75,7.2,US,1699652728
4,ust-nera,64.5667,143.2,241.11,97,55,1.34,RU,1699653016
5,gizo,-8.103,156.8419,300.85,79,100,8.84,SB,1699653016
6,taldykorgan,45.0156,78.3739,277.73,81,6,2.02,KZ,1699653016
7,port mathurin,-19.6833,63.4167,297.95,79,9,4.91,MU,1699653016
8,port-aux-francais,-49.35,70.2167,280.06,96,100,14.67,TF,1699653017
9,kimbe,-5.5502,150.1429,301.31,71,80,2.87,PG,1699653017
10,kodiak,57.79,-152.4072,273.88,60,75,3.6,US,1699653017
11,iqaluit,63.7506,-68.5145,265.0,62,100,3.09,CA,1699653017
12,tual,-5.6667,132.75,300.87,78,63,4.18,ID,1699653018
13,gulf shores,30.246,-87.7008,298.36,75,75,3.6,US,1699653018
14,margaret river,-33.95,115.0667,284.54,86,8,5.45,AU,1699653018
15,yellowknife,62.456,-114.3525,276.24,97,75,3.6,CA,1699653019
16,ushuaia,-54.8,-68.3,284.96,54,0,2.57,AR,1699653019
17,adamstown,-25.066,-130.1015,295.95,80,1,5.69,PN,1699653019
18,ribeira grande,38.5167,-28.7,294.37,94,75,12.07,PT,1699653020
19,cavelossim,15.1726,73.9419,299.25,74,38,2.44,IN,1699653020
20,barro alto,-11.7608,-41.9117,299.68,37,13,3.51,BR,1699653020
21,ryotsu-minato,38.0833,138.4333,280.78,70,94,7.1,JP,1699653021
22,isafjordur,66.0755,-23.124,274.44,84,98,2.62,IS,1699653021
23,zmiyevka,52.6697,36.3739,277.07,87,99,4.37,RU,1699653021
24,oederan,50.8667,13.1667,277.74,84,24,4.72,DE,1699653022
25,nizhniy kuranakh,58.8353,125.4869,257.77,98,100,1.71,RU,1699653022
26,bilibino,68.0546,166.4372,245.19,100,96,1.11,RU,1699653022
27,ceres,37.5949,-120.9577,294.84,39,0,3.27,US,1699653022
28,grytviken,-54.2811,-36.5092,275.44,87,70,4.79,GS,1699653023
29,qaqortoq,60.7167,-46.0333,265.67,61,78,4.68,GL,1699653023
30,kourou,5.1552,-52.6478,300.33,81,14,4.52,GF,1699653023
31,lihue,21.9789,-159.3672,300.92,66,40,6.69,US,1699653023
32,olonkinbyen,70.9221,-8.7187,272.36,84,100,3.93,SJ,1699653024
33,brisas de zicatela,15.8369,-97.0419,304.44,48,40,3.09,MX,1699653024
34,puerto colombia,10.9878,-74.9547,304.2,78,100,4.19,CO,1699652837
35,queenstown,-31.8976,26.8753,290.98,52,39,1.2,ZA,1699653024
36,swift current,50.2834,-107.8014,275.6,75,0,6.17,CA,1699653025
37,puerto ayora,-0.7393,-90.3518,303.13,89,65,3.13,EC,1699652839
38,ta`u,-14.2336,-169.5144,300.49,82,16,2.77,AS,1699653025
39,port lincoln,-34.7333,135.8667,288.35,68,42,8.45,AU,1699653025
40,ormara,25.2088,64.6357,299.41,46,0,1.97,PK,1699653025
41,amungan,15.3652,119.9582,299.46,75,83,1.71,PH,1699653026
42,portland,45.5234,-122.6762,287.01,81,100,3.6,US,1699652862
43,bredasdorp,-34.5322,20.0403,291.17,76,85,2.23,ZA,1699653026
44,udachny,66.4167,112.4,265.07,72,78,3.14,RU,1699653026
45,katsuura,35.1333,140.3,288.16,73,86,7.73,JP,1699653026
46,longyearbyen,78.2186,15.6401,263.06,79,75,0.51,SJ,1699653027
47,college,64.8569,-147.8028,266.73,90,100,1.54,US,1699652790
48,talnakh,69.4865,88.3972,265.49,95,100,6.05,RU,1699653027
49,ponta delgada,37.7333,-25.6667,295.48,94,75,7.2,PT,1699653027
50,mount gambier,-37.8333,140.7667,287.61,62,86,4.68,AU,1699653028
51,menaka,15.9182,2.4022,301.42,11,51,3.35,ML,1699653028
52,polyarnyy,69.1989,33.4478,265.33,93,23,4.11,RU,1699653028
53,solnechnyy,50.7214,136.6319,265.94,90,100,1.75,RU,1699653029
54,puerto natales,-51.7236,-72.4875,280.94,85,100,3.16,CL,1699653029
55,puerto real,36.5282,-6.1901,291.24,82,75,1.03,ES,1699653029
56,atafu village,-8.5421,-172.5159,302.43,72,28,5.42,TK,1699653030
57,vilyuchinsk,52.9306,158.4028,273.3,98,100,0.7,RU,1699653030
58,coxen hole,16.3244,-86.5366,300.75,78,75,1.54,HN,1699652875
59,ciudad melchor muzquiz,27.8833,-101.5167,287.46,75,100,1.68,MX,1699653030
60,lata,40.1629,-8.3327,290.41,97,100,3.29,PT,1699653031
61,bonthe,7.5264,-12.505,298.55,85,100,1.75,SL,1699653031
62,utrik,11.2278,169.8474,300.68,84,100,9.27,MH,1699653031
63,lesnikovo,55.2822,65.3175,276.36,90,100,4.01,RU,1699653031
64,jabor,5.921,169.6434,301.59,80,100,8.25,MH,1699653032
65,zykovo,55.9519,93.1461,259.05,86,5,1.76,RU,1699653032
66,dryden,49.7833,-92.7503,271.31,80,100,2.06,CA,1699653032
67,kayangel,8.0823,134.7173,301.98,78,85,5.99,PW,1699653033
68,waitangi,-43.9535,-176.5597,284.16,80,97,1.79,NZ,1699653034
69,melekeok village,7.4957,134.6367,298.46,94,75,2.06,PW,1699653034
70,port elizabeth,-33.918,25.5701,292.31,77,0,1.03,ZA,1699653035
71,afaahiti,-17.75,-149.2833,302.08,84,98,5.2,PF,1699653035
72,susuman,62.7833,148.1667,243.2,99,84,0.26,RU,1699653035
73,ancud,-41.8697,-73.8203,284.19,76,89,11.11,CL,1699652865
74,papatowai,-46.5619,169.4708,289.32,37,0,0.78,NZ,1699653035
75,tiksi,71.6872,128.8694,259.77,86,100,9.74,RU,1699653036
76,fort bragg,35.139,-79.006,287.47,79,100,3.6,US,1699653036
77,hasaki,35.7333,140.8333,285.37,64,100,11.65,JP,1699653036
78,masterton,-40.9597,175.6575,286.97,40,2,0.76,NZ,1699653036
79,togur,58.3631,82.8265,268.79,86,100,3.58,RU,1699653036
80,enewetak,11.3474,162.3373,301.77,75,100,7.97,MH,1699653037
81,amahai,-3.3333,128.9167,299.49,84,24,0.73,ID,1699653037
82,smedjebacken,60.1418,15.4142,278.36,97,100,1.25,SE,1699653037
83,nyandoma,61.669,40.1991,275.37,95,100,3.47,RU,1699653037
84,magdagachi,53.45,125.8,259.72,68,25,2.65,RU,1699653037
85,indapur,18.3,73.25,297.32,72,85,1.02,IN,1699653038
86,shingu,33.7333,135.9833,285.68,85,95,2.94,JP,1699653038
87,olinda,-8.0089,-34.8553,301.0,65,40,4.63,BR,1699653038
88,bethel,41.3712,-73.414,283.62,59,100,0.45,US,1699652859
89,west island,-12.1568,96.8225,299.14,89,40,5.14,CC,1699653038
90,holma,9.9008,13.0567,299.29,29,76,1.55,NG,1699653038
91,new norfolk,-42.7826,147.0587,290.88,56,65,3.34,AU,1699653038
92,ribeira brava,32.65,-17.0667,294.66,79,43,1.27,PT,1699653039
93,prainha,-1.8,-53.48,304.95,43,17,2.81,BR,1699653039
94,wau,7.7029,27.9953,297.64,80,97,0.7,SS,1699653039
95,leua,48.2156,18.6071,283.43,92,100,2.96,SK,1699653039
96,anori,-3.7728,-61.6442,304.49,39,10,1.9,BR,1699653039
97,cestos city,5.46,-9.5828,298.96,88,86,3.45,LR,1699653040
98,buurhakaba,2.8026,44.0781,297.65,86,82,5.24,SO,1699653040
99,sterling,39.0062,-77.4286,280.7,87,100,2.06,US,1699653040
100,shendi,16.6915,33.4341,303.83,37,26,5.67,SD,1699653040
101,blackmans bay,-43.0167,147.3167,290.22,81,65,0.89,AU,1699653041
102,griffith,41.5284,-87.4237,281.07,55,0,6.17,US,1699653041
103,fale old settlement,-9.3852,-171.2468,301.66,79,41,4.85,TK,1699653041
104,enriquillo,17.9,-71.2333,300.97,79,1,6.17,DO,1699653041
105,wailua homesteads,22.0669,-159.378,300.59,74,40,6.69,US,1699653041
106,port alfred,-33.5906,26.891,292.93,88,23,4.76,ZA,1699653042
107,lautoka,-17.6167,177.4667,302.07,58,40,6.17,FJ,1699653042
108,la gi,10.6667,107.7833,298.19,88,100,4.08,VN,1699653042
109,squamish,49.7014,-123.1512,283.21,94,100,3.09,CA,1699653042
110,antsiranana,-12.2787,49.2917,297.52,89,16,1.96,MG,1699653042
111,lazaro cardenas,17.9583,-102.2,301.89,74,10,2.41,MX,1699652876
112,emerald,-23.5333,148.1667,296.12,63,25,4.32,AU,1699653042
113,onega,63.9061,38.1404,275.41,98,100,3.39,RU,1699653043
114,chos malal,-37.3781,-70.2709,289.9,39,56,13.4,AR,1699653043
115,albany,42.6001,-73.9662,282.51,55,61,1.99,US,1699652790
116,maintirano,-18.0667,44.0167,298.71,73,1,6.37,MG,1699653043
117,argo,37.6333,22.7333,285.81,84,69,1.12,GR,1699653043
118,khandyga,62.6667,135.6,237.17,100,65,0.58,RU,1699653043
119,nanao,37.05,136.9667,282.26,73,100,4.17,JP,1699653043
120,potam,27.6,-110.3833,301.29,21,0,6.49,MX,1699653043
121,joshimath,30.5667,79.5667,282.48,65,91,1.97,IN,1699653044
122,kailua-kona,19.6406,-155.9956,303.3,67,40,5.66,US,1699653044
123,tura,25.5198,90.2201,290.46,91,0,1.62,IN,1699653044
124,wanaraja,-7.1749,107.9808,294.79,97,62,1.31,ID,1699653044
125,tonj,7.2737,28.6822,297.16,85,73,1.14,SS,1699653044
126,igarka,67.4667,86.5833,266.59,95,100,7.66,RU,1699653044
127,saint-pierre,-21.3393,55.4781,298.47,73,75,2.06,RE,1699653044
128,naranjal,-2.6667,-79.6167,300.25,77,100,2.32,EC,1699653045
129,nuuk,64.1835,-51.7216,267.49,79,20,7.72,GL,1699653005
130,karratha,-20.7377,116.8463,297.05,45,1,5.5,AU,1699653045
131,colonia,50.9333,6.95,281.9,87,100,4.12,DE,1699652807
132,prince albert,53.2001,-105.7677,272.12,80,20,3.09,CA,1699653045
133,east ballina,-28.8667,153.5833,291.93,82,86,0.46,AU,1699653045
134,aral,40.5156,81.2636,279.59,48,62,4.41,CN,1699653045
135,hobyo,5.3505,48.5268,297.82,92,100,5.0,SO,1699653045
136,petropavlovsk-kamchatsky,53.0452,158.6483,272.48,98,75,1.79,RU,1699653046
137,korla,41.7597,86.1469,280.98,39,100,3.09,CN,1699653046
138,galle,6.0367,80.217,298.62,85,43,1.2,LK,1699653046
139,buala,-8.145,159.5921,299.24,90,100,0.68,SB,1699653046
140,libenge,3.65,18.6333,295.29,96,100,0.97,CD,1699653046
141,nogliki,51.8333,143.1667,269.45,82,100,8.94,RU,1699653046
142,adam,22.3756,57.5233,296.28,62,40,1.57,OM,1699653046
143,arenapolis,-14.4503,-56.8461,305.05,37,91,1.65,BR,1699653047
144,edinburgh of the seven seas,-37.0676,-12.3116,287.86,90,100,10.0,SH,1699653047
145,constantia,44.1833,28.65,287.53,76,100,5.15,RO,1699653014
146,bcharre,34.2508,36.0106,283.33,83,52,0.83,LB,1699653047
147,tazacorte,28.629,-17.9293,293.69,78,20,4.12,ES,1699652843
148,yuzhno-kurilsk,44.0306,145.8556,278.91,88,94,8.13,RU,1699653047
149,aasiaat,68.7098,-52.8699,265.22,91,99,2.67,GL,1699653047
150,santa cruz,-17.8,-63.1667,308.85,43,20,9.26,BO,1699652941
151,parkes,-33.1333,148.1833,298.9,40,32,1.34,AU,1699652789
152,kargil,34.5667,76.1,270.91,79,69,1.26,IN,1699653048
153,key west,24.5557,-81.7826,302.15,81,0,5.14,US,1699652773
154,vernon,50.2581,-119.2691,282.93,66,41,3.13,CA,1699653048
155,ketchikan,55.3422,-131.6461,281.12,93,100,6.17,US,1699652766
156,fort mcmurray,56.7268,-111.381,276.92,70,0,4.63,CA,1699653048
157,keflavik,64.0049,-22.5624,276.39,87,40,4.12,IS,1699653048
158,lisala,2.15,21.5167,294.71,97,98,0.48,CD,1699653048
159,ilha de mocambique,-15.0342,40.7358,299.12,83,89,5.9,MZ,1699653048
160,haiku-pauwela,20.9219,-156.3051,302.16,54,20,2.06,US,1699653049
161,jagatsinghapur,20.2667,86.1667,294.35,74,15,2.2,IN,1699653049
162,punta arenas,-53.15,-70.9167,288.16,54,0,5.14,CL,1699653049
163,sogndal,61.2283,7.1003,273.36,80,40,1.03,NO,1699653049
164,vorgashor,67.5833,63.95,257.24,100,81,1.4,RU,1699653049
165,east london,-33.0153,27.9116,293.13,90,39,5.85,ZA,1699653049
166,xiongzhou,25.1167,114.3,291.27,95,100,2.02,CN,1699653049
167,fidenza,44.864,10.0667,282.8,93,75,2.57,IT,1699653050
168,sakakah,29.9697,40.2064,292.91,32,56,2.24,SA,1699653050
169,guarapari,-20.6667,-40.4975,299.2,90,2,2.54,BR,1699653050
170,mata-utu,-13.2816,-176.1745,301.54,79,99,5.93,WF,1699653050
171,stutterheim,-32.5708,27.424,290.98,69,69,2.98,ZA,1699653050
172,hawaiian paradise park,19.5933,-154.9731,300.3,79,100,2.57,US,1699653050
173,seaside,36.6111,-121.8516,296.33,51,0,1.34,US,1699652840
174,puerto baquerizo moreno,-0.9,-89.6,299.7,74,75,4.12,EC,1699653050
175,ad-damazin,11.7891,34.3592,296.8,77,23,2.13,SD,1699653051
176,broken hill,-31.95,141.4333,302.23,25,44,5.21,AU,1699653032
177,kavaratti,10.5669,72.642,300.97,78,59,3.18,IN,1699653051
178,mweka,-4.85,21.5667,293.63,92,96,0.25,CD,1699653051
179,stanley,54.868,-1.6985,276.22,92,0,3.09,GB,1699653051
180,maridi,4.9158,29.4742,294.13,85,49,1.08,SS,1699653051
181,solleftea,63.1667,17.2667,274.07,96,100,5.06,SE,1699653051
182,thompson,55.7435,-97.8558,272.24,80,100,2.57,CA,1699653051
183,las tablas,7.7667,-80.2833,300.56,83,100,0.96,PA,1699652913
184,kone,-21.0595,164.8658,299.11,47,76,2.33,NC,1699653052
185,la sarre,48.8002,-79.1996,269.93,92,100,3.56,CA,1699653052
186,san jose de guanipa,8.8872,-64.1651,302.08,61,96,3.35,VE,1699653052
187,mato verde,-15.3972,-42.8664,302.37,29,45,2.07,BR,1699653052
188,hassi messaoud,31.6804,6.0729,293.7,32,70,1.96,DZ,1699653052
189,klyuchi,52.2667,79.1667,276.59,88,90,4.09,RU,1699653052
190,margate,51.3813,1.3862,280.76,79,12,3.13,GB,1699653054
191,tekeli,44.83,78.8239,273.41,73,16,3.7,KZ,1699653054
192,guankou,28.15,113.6333,284.04,96,100,1.61,CN,1699653055
193,dan sadau,11.2962,6.4952,298.85,21,65,2.71,NG,1699653055
194,soe,-9.8607,124.284,294.21,57,4,0.88,ID,1699653055
195,sitka,57.0531,-135.33,281.09,66,75,8.23,US,1699652820
196,ouadda,8.0777,22.4007,294.19,94,86,0.99,CF,1699653056
197,anna regina,7.2644,-58.5077,300.06,85,51,3.92,GY,1699653056
198,novo brdo,45.5864,16.0229,284.28,93,100,0.0,HR,1699653056
199,laela,-8.5667,32.05,294.83,56,99,3.43,TZ,1699653056
200,timbuktu,16.7735,-3.0074,300.84,15,60,4.16,ML,1699653056
201,lorengau,-2.0226,147.2712,300.58,85,98,3.53,PG,1699653057
202,geraldton,-28.7667,114.6,287.38,82,100,4.63,AU,1699653057
203,bodaybo,57.8506,114.1933,262.01,97,100,0.93,RU,1699653057
204,lompoc,34.6391,-120.4579,298.58,49,0,5.66,US,1699653057
205,luanco,43.6152,-5.7934,286.86,97,100,3.18,ES,1699653057
206,la passe,45.5549,-0.8967,284.81,73,68,4.69,FR,1699653057
207,puerto deseado,-47.7503,-65.8938,290.95,36,25,10.54,AR,1699653058
208,charters towers,-20.1,146.2667,296.59,65,92,3.95,AU,1699653058
209,saint-philippe,-21.3585,55.7679,297.92,84,43,1.93,RE,1699653058
210,novoishimskiy,53.1981,66.7694,276.31,90,100,3.98,KZ,1699653058
211,g'uzor,38.6214,66.2522,280.17,18,100,1.95,UZ,1699653058
212,vila franca do campo,37.7167,-25.4333,295.31,99,89,6.93,PT,1699653058
213,howrah,22.5892,88.3103,296.15,83,7,0.0,IN,1699653058
214,dunedin,-45.8742,170.5036,289.86,64,0,3.58,NZ,1699652782
215,san antonio de pale,-1.4014,5.6325,299.24,84,100,5.12,GQ,1699653059
216,invercargill,-46.4,168.35,288.9,39,0,1.58,NZ,1699653059
217,badger,64.8,-147.5333,266.68,90,100,1.54,US,1699652928
218,darwin,-12.4611,130.8418,299.79,83,20,1.03,AU,1699653044
219,ulsteinvik,62.3432,5.8487,277.46,79,93,2.24,NO,1699653059
220,singaraja,-8.112,115.0882,299.06,81,100,2.06,ID,1699653059
221,kiruna,67.8557,20.2251,260.66,85,2,3.6,SE,1699653059
222,ambodifotatra,-16.9833,49.85,298.4,82,96,3.38,MG,1699653059
223,richlands,37.0932,-81.7937,281.75,100,100,0.0,US,1699652969
224,chernyshevskiy,63.0128,112.4714,259.45,85,47,2.49,RU,1699653060
225,pyapon,16.2833,95.6833,297.54,94,99,2.63,MM,1699653060
226,lebu,-37.6167,-73.65,285.23,79,74,8.67,CL,1699653060
227,dudinka,69.4058,86.1778,265.75,93,100,12.07,RU,1699653060
228,crane,31.3974,-102.3501,286.29,48,88,3.26,US,1699653060
229,fortuna foothills,32.6578,-114.4119,297.86,10,10,1.79,US,1699653060
230,labytnangi,66.6572,66.4183,261.87,90,76,1.76,RU,1699652909
231,florencia,43.7667,11.25,284.68,89,40,2.57,IT,1699652927
232,gadzhiyevo,69.2551,33.3362,264.82,94,30,4.06,RU,1699653061
233,hirara,24.8,125.2833,297.3,88,75,6.17,JP,1699653061
234,georgetown,5.4112,100.3354,300.38,95,20,2.06,MY,1699653061
235,puerto armuelles,8.2833,-82.8667,302.57,84,96,3.13,PA,1699653062
236,niquelandia,-14.4739,-48.4597,304.78,22,45,2.31,BR,1699653062
237,botticino,45.536,10.3019,282.25,93,75,4.12,IT,1699653062
238,banda aceh,5.5577,95.3222,299.05,85,100,4.01,ID,1699653062
239,ambon,-3.6954,128.1814,299.31,15,20,3.09,ID,1699653063
240,chinchilla,-26.75,150.6333,295.19,59,3,5.12,AU,1699653063
241,vanino,49.0869,140.2543,268.23,74,100,4.85,RU,1699653064
242,uturoa,-16.7333,-151.4333,300.1,81,99,5.03,PF,1699653064
243,fulton,33.7668,-84.4499,292.0,89,75,4.63,US,1699653064
244,whangarei,-35.7317,174.3239,292.73,45,5,0.42,NZ,1699653064
245,shushtar,32.0455,48.8567,297.62,33,30,1.31,IR,1699653065
246,springbok,-29.6643,17.8865,290.09,55,23,1.29,ZA,1699653066
247,abu road,24.4833,72.7833,295.45,51,1,2.5,IN,1699653066
248,nar'yan-mar,67.6713,53.087,264.32,93,69,3.13,RU,1699653066
249,salinopolis,-0.6136,-47.3561,300.77,81,43,7.45,BR,1699653066
250,waycross,31.2136,-82.354,300.29,54,0,3.09,US,1699653067
251,gwadar,25.1216,62.3254,298.75,38,0,4.61,PK,1699653067
252,sultanah,24.4926,39.5857,300.4,19,0,4.12,SA,1699653067
253,sao felix do xingu,-6.6447,-51.995,299.22,69,66,1.26,BR,1699653067
254,cabanglasan,8.1214,125.3275,294.01,97,15,0.76,PH,1699653068
255,sarmiento,-45.5882,-69.07,292.47,22,57,12.2,AR,1699653068
256,remire-montjoly,4.9167,-52.2667,300.83,80,23,6.67,GF,1699653068
257,whitehorse,60.7161,-135.0538,273.58,86,100,0.0,CA,1699652923
258,hamilton,39.1834,-84.5333,289.62,29,0,4.92,US,1699653037
259,kiiminki,65.1314,25.7974,269.69,100,37,2.32,FI,1699653069
260,khonsa,27.0167,95.5667,287.35,83,0,1.66,IN,1699653069
261,luganville,-15.5333,167.1667,299.29,83,100,6.52,VU,1699653069
262,carnarvon,-24.8667,113.6333,293.65,73,100,9.0,AU,1699653069
263,rio san juan,19.6439,-70.0763,300.1,82,100,5.26,DO,1699653069
264,tsiombe,-25.3,45.4833,294.02,61,88,3.52,MG,1699653070
265,westport,41.1415,-73.3579,284.17,59,0,3.6,US,1699653070
266,boromo,11.75,-2.9333,302.39,31,13,0.34,BF,1699653070
267,savanna-la-mar,18.219,-78.1332,303.12,82,50,1.18,JM,1699653071
268,champerico,14.3,-91.9167,308.45,74,14,3.29,GT,1699653071
269,natal,-5.795,-35.2094,300.51,69,40,4.63,BR,1699652898
270,dawson creek,55.7666,-120.2362,278.95,45,0,7.2,CA,1699653071
271,usinsk,65.9939,57.5281,267.63,81,99,2.24,RU,1699653071
272,isfahan,32.6572,51.6776,276.95,34,5,0.42,IR,1699653072
273,la cumbre,-30.982,-64.4914,296.65,75,100,3.6,AR,1699653072
274,bria,6.5423,21.9863,294.7,95,91,0.48,CF,1699653072
275,canmore,51.0834,-115.3521,279.16,48,23,2.06,CA,1699652810
276,grajau,-5.8194,-46.1386,301.6,57,7,1.65,BR,1699652778
277,vadso,70.0744,29.7487,271.24,86,40,6.69,NO,1699653073
278,tahara,34.6667,137.2667,288.12,50,40,10.3,JP,1699653073
279,la foa,-21.7108,165.8276,297.07,52,66,2.83,NC,1699653073
280,piton saint-leu,-21.2196,55.3151,296.71,73,75,2.06,RE,1699653073
281,tanah merah,5.8,102.15,298.05,99,99,0.23,MY,1699653074
282,kuta,-8.7233,115.1723,299.12,88,20,2.68,ID,1699653074
283,rosales,15.8944,120.6328,296.74,87,93,1.33,PH,1699653074
284,mount pearl,47.5166,-52.7813,276.11,90,75,10.29,CA,1699653074
285,pittsburg,38.028,-121.8847,295.03,36,0,0.89,US,1699652978
286,pianoro,44.393,11.3423,283.5,92,40,3.6,IT,1699653075
287,kharkhorin,47.1975,102.8238,256.38,85,2,2.27,MN,1699653075
288,pemangkat,1.1667,108.9667,298.7,87,100,2.42,ID,1699653075
289,feijo,-8.1642,-70.3536,300.34,72,83,1.44,BR,1699653075
290,choyr,46.3611,108.3611,252.71,93,11,2.41,MN,1699653075
291,khanty-mansiysk,61.0042,69.0019,270.21,100,100,2.0,RU,1699653076
292,belmonte,-15.8631,-38.8828,298.43,81,2,5.64,BR,1699653076
293,owerri,5.4833,7.0304,296.29,93,94,1.62,NG,1699653076
294,kirakira,-10.4544,161.9205,300.46,84,99,5.0,SB,1699653077
295,kragujevac,44.0167,20.9167,283.31,94,100,3.51,RS,1699653077
296,touros,-5.1989,-35.4608,299.16,74,11,7.02,BR,1699653077
297,peace river,56.2501,-117.286,281.32,53,20,6.17,CA,1699653078
298,porto novo,6.4965,2.6036,299.05,82,100,3.98,BJ,1699653078
299,coquimbo,-29.9533,-71.3436,292.0,72,20,5.66,CL,1699653078
300,saipan,15.1355,145.701,301.54,78,40,5.14,MP,1699653079
301,callaway,30.153,-85.5699,299.25,77,40,2.57,US,1699653079
302,ginebra,46.2022,6.1457,281.2,87,75,6.17,CH,1699653079
303,cidreira,-30.1811,-50.2056,292.97,80,99,10.61,BR,1699653079
304,avarua,-21.2078,-159.775,299.18,89,95,4.63,CK,1699653080
305,fort st. john,56.2499,-120.8529,278.09,52,20,7.72,CA,1699652881
306,taltal,-25.4,-70.4833,293.56,66,22,2.33,CL,1699653080
307,diapaga,12.0708,1.7889,301.96,15,68,2.21,BF,1699653080
308,anadyr,64.75,177.4833,258.43,78,75,5.0,RU,1699653080
309,rawson,-43.3002,-65.1023,300.57,15,91,6.68,AR,1699653081
310,tvoroyri,61.5556,-6.8111,280.93,74,67,7.09,FO,1699653081
311,hermanus,-34.4187,19.2345,290.28,87,84,1.46,ZA,1699653081
312,meizhou,24.2977,116.1072,295.34,94,100,1.03,CN,1699653081
313,sinabang,2.4803,96.3801,298.96,84,100,0.6,ID,1699653081
314,kozhevnikovo,56.2589,83.9714,273.85,99,100,2.17,RU,1699653082
315,namibe,-15.1961,12.1522,293.51,77,59,1.98,AO,1699653082
316,amparafaravola,-17.5833,48.2167,295.23,75,96,1.71,MG,1699653082
317,lensk,60.7253,114.9278,264.23,81,99,5.6,RU,1699653082
318,vilhena,-12.7406,-60.1458,300.27,78,75,0.51,BR,1699653083
319,northam,51.0333,-4.2167,283.37,87,31,7.25,GB,1699653083
320,tshabong,-26.05,22.45,301.77,20,81,5.34,BW,1699653083
321,kerema,-7.9631,145.7785,298.6,82,99,2.1,PG,1699653084
322,tottori,35.5,134.2333,286.19,82,75,12.86,JP,1699653084
323,childress,34.4264,-100.204,289.29,13,75,4.12,US,1699653084
324,agadez,19.75,10.25,298.56,15,90,3.58,NE,1699653085
325,phongsali,21.6833,102.1058,286.28,91,21,0.42,LA,1699653085
326,waterloo,43.4668,-80.5164,280.25,65,40,7.2,CA,1699653085
327,malindi,-3.2175,40.1191,299.24,89,40,0.0,KE,1699653085
328,st. john's,47.5649,-52.7093,276.57,90,75,10.29,CA,1699653085
329,newman,37.3138,-121.0208,294.39,37,2,2.24,US,1699653085
330,arraial do cabo,-22.9661,-42.0278,297.13,88,20,4.12,BR,1699653086
331,dabeiba,7.0017,-76.2672,298.92,97,100,0.82,CO,1699653086
332,nagqu,31.5,92.0,267.82,78,98,1.43,CN,1699653086
333,greymouth,-42.4667,171.2,287.93,62,2,2.12,NZ,1699653086
334,xichang,27.8964,102.2634,282.5,85,1,0.52,CN,1699653086
335,okha,53.5739,142.9478,267.38,81,100,5.36,RU,1699653087
336,shakawe,-18.3667,21.85,301.31,34,83,1.21,BW,1699653087
337,nayoro,44.3506,142.4578,272.07,84,89,6.65,JP,1699653087
338,kirensk,57.7853,108.1119,262.57,70,87,1.79,RU,1699653087
339,nemuro,43.3236,145.575,278.64,76,100,4.81,JP,1699653088
340,uthal,25.8072,66.6219,297.58,23,0,2.27,PK,1699653088
341,zag,46.9441,99.165,258.0,76,1,1.53,MN,1699653088
342,klaksvik,62.2266,-6.589,277.66,76,48,7.09,FO,1699653088
343,karyes,37.3,22.5,283.82,96,59,1.89,GR,1699653089
344,porbandar,21.6422,69.6093,300.4,61,48,3.8,IN,1699653089
345,dhuusamarreeb,5.535,46.3861,296.44,92,100,4.83,SO,1699653089
346,lloydminster,53.2835,-110.0016,275.27,75,20,7.2,CA,1699652827
347,ntoum,0.3833,9.7833,297.05,95,100,0.76,GA,1699653090
348,severo-yeniseyskiy,60.3725,93.0408,259.03,94,27,1.79,RU,1699653090
349,campbellton,48.0075,-66.6727,274.4,96,97,1.03,CA,1699653090
350,chilliwack,49.1747,-121.9443,284.44,89,100,1.34,CA,1699653090
351,chonchi,-42.6128,-73.8092,284.33,71,100,5.29,CL,1699652861
352,onguday,50.75,86.15,270.52,96,100,0.86,RU,1699653091
353,al bawiti,28.3492,28.8659,293.97,53,100,3.9,EG,1699653091
354,batroun,34.2553,35.6581,292.34,83,62,3.02,LB,1699653091
355,marsabit,2.3284,37.9899,293.67,69,97,3.02,KE,1699653092
356,tame,6.461,-71.73,299.39,84,82,1.54,CO,1699653092
357,acarau,-2.8856,-40.12,299.67,76,3,8.89,BR,1699653092
358,miquelon,47.0975,-56.3814,277.15,70,99,11.71,PM,1699653092
359,viedma,-40.8135,-62.9967,298.71,33,100,12.71,AR,1699653092
360,hadibu,12.65,54.0333,299.96,80,90,5.22,YE,1699653093
361,laguna,38.421,-121.4238,294.42,39,0,3.09,US,1699653093
362,luena,-11.7833,19.9167,294.25,78,0,2.06,AO,1699653093
363,egilsstadir,65.2653,-14.3948,268.1,93,0,2.06,IS,1699653093
364,al ghayzah,16.2079,52.176,300.06,72,35,2.08,YE,1699653093
365,katsuren-haebaru,26.3369,127.8719,297.16,88,75,3.6,JP,1699653094
366,souillac,-20.5167,57.5167,296.36,88,20,2.06,MU,1699653094
367,riohacha,11.5444,-72.9072,306.21,66,20,6.69,CO,1699653094
368,eraan,9.0629,117.7016,298.88,89,47,1.69,PH,1699653094
369,inderbor,48.55,51.7833,280.72,68,100,7.84,KZ,1699653095
370,lagos,6.5833,3.75,299.56,90,96,2.54,NG,1699653095
371,meiganga,6.5167,14.3,293.47,90,100,0.43,CM,1699653096
372,pacific grove,36.6177,-121.9166,296.14,54,0,1.34,US,1699652834
373,azangaro,-14.9167,-70.2167,286.34,55,92,7.33,PE,1699653096
374,thinadhoo,0.5333,72.9333,300.26,83,77,4.91,MV,1699653096
375,motygino,58.1831,94.7592,257.47,96,6,1.79,RU,1699653097
376,rincon,32.296,-81.2354,300.13,61,75,4.12,US,1699653097
377,baoqing,46.3317,132.2111,259.09,89,13,3.71,CN,1699653097
378,lionel town,17.8101,-77.2406,305.09,82,43,5.8,JM,1699653097
379,fereydunshahr,32.941,50.121,278.65,54,96,1.34,IR,1699653097
380,kavieng,-2.5744,150.7967,301.89,75,100,5.62,PG,1699653097
381,codrington,-38.2667,141.9667,287.99,60,87,6.7,AU,1699653098
382,daru,-9.0763,143.2092,299.87,70,53,4.6,PG,1699653098
383,jacobina,-11.1806,-40.5183,299.23,32,38,1.61,BR,1699652911
384,moyynkum,44.2914,72.9469,281.29,67,48,3.69,KZ,1699653098
385,chulakkurgan,43.765,69.1814,279.65,53,99,2.02,KZ,1699653099
386,grantsville,40.5999,-112.4644,284.67,49,0,2.57,US,1699653099
387,rosarito,32.3333,-117.0333,299.95,39,63,3.8,MX,1699653099
388,mirny,62.5353,113.9611,264.95,78,54,4.02,RU,1699653099
389,beloyarskiy,63.7119,66.6722,271.48,97,100,1.34,RU,1699653099
390,castelli,-25.9468,-60.6195,314.26,19,59,6.27,AR,1699653100
391,port augusta,-32.5,137.7667,293.06,63,19,9.53,AU,1699652857
392,la mure,44.9026,5.7866,277.13,99,100,1.39,FR,1699653100
393,qamdo,31.1667,97.2333,269.8,58,80,2.02,CN,1699653102
394,vryheid,-27.7695,30.7917,288.3,96,3,2.26,ZA,1699653102
395,harper,4.375,-7.7169,298.25,90,49,3.43,LR,1699653103
396,tolanaro,-25.0319,46.9987,293.19,77,20,2.06,MG,1699653103
397,pangoa,-12.1167,-73.0,301.66,57,15,1.0,PE,1699653103
398,ciudad lazaro cardenas,17.9583,-102.2,301.89,74,10,2.41,MX,1699653104
399,lankaran,38.7543,48.8506,287.19,100,100,2.06,AZ,1699653104
400,sao tome,0.3365,6.7273,299.04,86,99,2.27,ST,1699653104
401,tinajo,29.0788,-13.7081,294.64,78,20,5.66,ES,1699653104
402,al burayqah,30.4062,19.5739,295.69,53,72,3.46,LY,1699653104
403,turinsk,58.0458,63.696,275.28,92,100,4.26,RU,1699653104
404,fuglafjordur,62.244,-6.814,277.41,78,48,6.02,FO,1699653105
405,maun,-19.9833,23.4167,300.88,24,21,2.79,BW,1699653105
406,homer,59.6425,-151.5483,275.08,81,75,2.24,US,1699653105
407,berezovo,63.9381,65.0419,272.63,98,100,2.3,RU,1699653105
408,rio grande,-32.035,-52.0986,291.21,86,88,9.07,BR,1699653105
409,reinosa,42.9996,-4.138,282.07,97,100,3.67,ES,1699653106
410,paka,4.6374,103.4368,298.11,94,100,0.0,MY,1699653106
411,campbell river,50.0163,-125.2446,282.89,93,100,7.2,CA,1699652866
412,mentekab,3.4854,102.3484,297.56,99,100,0.45,MY,1699653106
413,narasannapeta,18.4167,84.05,294.69,74,3,2.51,IN,1699653106
414,singkil,-7.9855,111.4161,296.97,93,80,1.84,ID,1699653106
415,spring creek,40.7266,-115.5859,283.37,16,70,3.28,US,1699653106
416,taroa,8.7058,171.2275,300.98,85,100,10.59,MH,1699653107
417,castro,-24.7911,-50.0119,294.28,88,92,0.86,BR,1699653107
418,chimore,-16.9833,-65.1333,307.25,37,75,1.43,BO,1699653107
419,minas de marcona,-15.2119,-75.1103,290.04,79,58,6.3,PE,1699653107
420,kununurra,-15.7667,128.7333,300.14,83,75,2.06,AU,1699653107
421,saynshand,44.8824,110.1163,255.21,87,4,1.73,MN,1699653107
422,tarko-sale,64.9225,77.785,264.96,94,99,3.87,RU,1699653107
423,malvan,16.0667,73.4667,299.79,72,35,2.63,IN,1699653107
424,beboto,8.2668,16.939,295.87,91,38,1.96,TD,1699653108
425,rio branco,-9.9747,-67.81,309.49,41,75,2.06,BR,1699653108
426,wanning,18.8003,110.3967,298.21,92,54,1.96,CN,1699653108
427,ipatovo,45.7181,42.9036,279.27,70,0,2.26,RU,1699653108
428,al kharijah,25.4514,30.5464,298.59,38,83,3.8,EG,1699653108
429,dampit,-8.2116,112.7493,294.62,95,49,0.61,ID,1699653108
430,grand falls-windsor,48.9332,-55.6649,274.54,92,100,5.17,CA,1699653108
431,nerchinsk,51.9833,116.5833,258.49,91,100,1.52,RU,1699653109
432,arroyo,41.6096,-4.7969,285.49,79,100,5.14,ES,1699653109
433,parral,26.9333,-105.6667,293.38,47,43,3.81,MX,1699653109
434,brooks,50.5834,-111.8851,284.14,34,69,4.12,CA,1699653109
435,tamandare,-8.7597,-35.1047,298.25,73,6,4.54,BR,1699653109
436,alo,7.4178,6.7371,299.09,84,96,2.22,NG,1699653109
437,dalbandin,28.8947,64.4101,289.59,23,0,2.15,PK,1699653110
438,jurm,36.8648,70.8342,281.87,15,31,2.33,AF,1699653110
439,mount isa,-20.7333,139.5,299.02,83,100,0.0,AU,1699653110
440,callao,-12.0667,-77.15,295.31,60,0,7.72,PE,1699653110
441,hancheng,32.5186,112.3522,277.96,63,100,6.42,CN,1699653110
442,yigo village,13.5361,144.8886,300.77,90,40,8.75,GU,1699653110
443,sydney,-33.8679,151.2073,296.66,79,40,4.12,AU,1699653078
444,plettenberg bay,-34.0527,23.3716,290.42,86,37,4.86,ZA,1699653110
445,aberdeen,57.1437,-2.0981,280.42,95,75,5.66,GB,1699653110
446,rakops,-21.0167,24.3333,300.55,36,25,7.78,BW,1699653111
447,port isabel,26.0734,-97.2086,290.38,91,100,6.17,US,1699653094
448,machico,32.7,-16.7667,294.66,83,40,2.06,PT,1699653111
449,crucecita,-28.95,-58.9833,303.23,70,100,5.39,AR,1699653111
450,antonio enes,-16.2325,39.9086,298.39,78,94,5.14,MZ,1699653098
451,thurso,58.5927,-3.5259,279.29,83,100,4.08,GB,1699653111
452,sangmelima,2.9333,11.9833,293.16,99,100,0.99,CM,1699653111
453,olovyannaya,50.95,115.5667,259.67,89,100,2.25,RU,1699653111
454,byron bay,-28.65,153.6167,291.88,79,57,1.85,AU,1699653112
455,vertientes,21.2594,-78.1464,303.49,75,68,5.97,CU,1699653112
456,port douglas,-16.4833,145.4667,298.16,64,47,3.45,AU,1699653112
457,imperatriz,-5.5264,-47.4917,302.22,52,49,1.76,BR,1699653112
458,mozarlandia,-14.7447,-50.5706,305.55,24,16,3.21,BR,1699653112
459,nabire,-3.3667,135.4833,298.3,85,87,1.91,ID,1699653112
460,urcos,-13.6861,-71.6228,293.09,59,81,3.32,PE,1699653112
461,prince rupert,54.3161,-130.3201,280.98,84,100,21.09,CA,1699652892
462,flying fish cove,-10.4217,105.6791,297.97,83,100,3.6,CX,1699653113
463,horta,38.5333,-28.6333,293.95,96,75,11.62,PT,1699653113
464,broome,42.2506,-75.833,282.4,65,100,1.54,US,1699653113
465,ploneour-lanvern,47.9,-4.2833,282.31,87,0,2.06,FR,1699653113
466,tazovsky,67.4667,78.7,263.27,95,19,4.15,RU,1699653113
467,ghanzi,-21.5667,21.7833,301.6,23,87,6.38,BW,1699653113
468,radyvyliv,50.1299,25.2558,279.11,83,100,3.49,UA,1699653113
469,burley,42.5357,-113.7928,282.7,31,75,4.63,US,1699653113
470,giado,31.9582,12.0203,289.95,48,55,0.11,LY,1699653114
471,muzaffarabad,34.37,73.4711,284.1,72,1,2.63,PK,1699653114
472,saudarkrokur,65.7461,-19.6394,272.09,76,99,4.23,IS,1699653114
473,halifax,44.6453,-63.5724,280.15,71,100,7.2,CA,1699652985
474,blatna,49.4249,13.8818,278.39,100,93,1.68,CZ,1699653114
475,serenje,-13.2325,30.2352,291.97,82,35,4.07,ZM,1699653114
476,sumbe,-11.2061,13.8437,297.88,87,100,4.5,AO,1699653114
477,carutapera,-1.195,-46.02,300.26,79,4,5.46,BR,1699653114
478,brookings,44.3114,-96.7984,277.14,69,100,0.0,US,1699652835
479,bardai,11.65,7.2333,296.61,22,84,2.32,NG,1699653115
480,anan,33.9167,134.65,290.03,77,75,9.77,JP,1699653115
481,salahonda,2.1019,-78.7217,299.29,86,100,6.21,CO,1699653115
482,nadi,-17.8,177.4167,302.15,58,40,6.17,FJ,1699653115
483,sao vicente,-23.9631,-46.3919,299.25,59,100,0.51,BR,1699653115
484,ashtarak,40.2991,44.362,281.24,57,20,0.51,AM,1699653115
485,praia da vitoria,38.7333,-27.0667,295.29,83,75,12.15,PT,1699653115
486,berezovyy,51.6667,135.7,264.58,80,83,0.32,RU,1699653115
487,north bend,43.4065,-124.2243,287.17,82,0,2.06,US,1699653116
488,assab,13.0092,42.7394,300.38,70,58,9.78,ER,1699653116
489,kittila,67.6647,24.8936,260.23,92,0,2.06,FI,1699653116
490,hermosillo,29.0667,-110.9667,301.62,14,0,0.89,MX,1699653095
491,horad zhodzina,54.0983,28.3325,277.3,87,100,4.34,BY,1699653116
492,iskateley,67.6803,53.1512,264.27,93,69,3.13,RU,1699653116
493,fisterra,42.9049,-9.2629,290.79,97,100,10.31,ES,1699653116
494,toliara,-23.35,43.6667,294.59,64,0,6.52,MG,1699653116
495,ghadamis,30.1337,9.5007,293.56,34,72,3.52,LY,1699653117
496,shalqar,47.8333,59.6,280.95,93,100,4.15,KZ,1699653117
497,barcelos,41.5388,-8.6151,290.33,98,100,4.64,PT,1699652924
498,gwanda,-20.9333,29.0,293.69,60,0,4.75,ZW,1699653117
499,ebon,4.582,168.6964,301.85,77,100,5.46,MH,1699653117
500,dergachi,51.2328,48.7659,277.52,74,70,7.08,RU,1699653117
501,khorinsk,52.1657,109.7726,257.47,97,38,1.49,RU,1699653117
502,island harbour,50.724,-1.2758,280.37,87,2,1.34,GB,1699653117
503,kerikeri,-35.2268,173.9474,291.05,58,12,1.61,NZ,1699653117
504,hollister,36.8525,-121.4016,297.67,22,0,0.89,US,1699653037
505,rochester,43.1548,-77.6156,282.23,57,100,1.54,US,1699653011
506,villa gesell,-37.2639,-56.973,286.81,87,100,7.32,AR,1699653118
507,guerrero negro,27.9769,-114.0611,298.53,23,0,4.81,MX,1699653118
508,bata,1.8639,9.7658,297.8,87,100,0.88,GQ,1699653118
509,sampit,-2.5333,112.95,296.43,98,94,0.72,ID,1699653118
510,sharan,54.8167,54.0,277.71,95,100,1.37,RU,1699653118
511,as sanad,34.4628,9.264,288.29,47,74,3.92,TN,1699653118
512,pailin,12.849,102.6093,296.5,98,97,0.53,KH,1699653118
513,nouadhibou,20.931,-17.0347,298.14,50,0,4.63,MR,1699653119
514,santana,-0.0583,-51.1817,304.25,66,20,7.2,BR,1699653014
515,balikpapan,-1.2675,116.8289,298.7,94,20,1.54,ID,1699653064
516,warwick,41.7001,-71.4162,283.66,56,75,5.66,US,1699652825
517,berdigestyakh,62.0989,126.6992,245.09,100,100,0.82,RU,1699653119
518,weno,7.4515,151.8468,300.12,94,100,4.12,FM,1699653119
519,bom jesus,-9.0744,-44.3586,304.98,27,45,2.59,BR,1699653119
520,whakatane,-37.9585,176.9854,291.42,57,0,1.79,NZ,1699653113
521,shanhaiguan,39.9988,119.7564,270.79,43,45,2.3,CN,1699653119
522,ghat,24.9647,10.1728,296.18,15,0,1.16,LY,1699653119
523,cadale,2.7603,46.3222,300.42,79,98,4.34,SO,1699653119
524,rudnichnyy,59.617,52.4703,274.67,97,100,3.4,RU,1699653120
525,barra,-11.0894,-43.1417,302.76,36,18,2.35,BR,1699653120
526,svidnik,49.3082,21.5703,282.14,85,100,1.98,SK,1699653120
527,lae,-6.7221,146.9847,299.66,72,65,2.68,PG,1699653120
528,suntar,62.1444,117.6319,259.93,94,51,2.59,RU,1699653120
529,jiuquan,39.7432,98.5174,267.66,33,0,1.52,CN,1699653120
530,kapuskasing,49.4169,-82.4331,270.2,86,75,5.14,CA,1699653120
531,tromso,69.6496,18.957,272.16,93,40,1.03,NO,1699653121
532,kawalu,-7.3817,108.2082,294.43,95,58,0.69,ID,1699653121
533,knysna,-34.0363,23.0471,290.67,89,35,4.15,ZA,1699653121
534,nova sintra,14.8667,-24.7167,295.76,69,87,4.99,CV,1699653121
535,san patricio,28.017,-97.5169,289.73,94,100,4.55,US,1699653121
536,le port,-20.9373,55.2919,298.65,92,46,2.96,RE,1699653121
537,ust-tsilma,65.441,52.1498,267.93,97,58,0.45,RU,1699653122
538,itatiaia,-22.4961,-44.5633,296.56,88,59,1.6,BR,1699653122
539,zyrya,40.3661,50.2917,287.2,58,100,6.36,AZ,1699653122
540,hithadhoo,-0.6,73.0833,300.12,84,100,5.86,MV,1699653122
541,mermoz boabab,14.7065,-17.4758,299.03,73,78,3.09,SN,1699653123
542,lucapa,-8.4192,20.7447,292.21,92,100,0.34,AO,1699653123
543,smithers,54.7804,-127.1743,277.33,75,100,5.14,CA,1699653123
544,palora,-1.7,-77.9333,300.21,88,99,0.72,EC,1699653124
545,pisco,-13.7,-76.2167,295.18,73,0,8.75,PE,1699653124
546,new plymouth,-39.0667,174.0833,287.21,58,0,2.39,NZ,1699653025
547,kemijarvi,66.7131,27.4306,260.8,97,61,0.99,FI,1699653124
548,puerto carreno,6.189,-67.4859,303.14,70,40,2.57,CO,1699653125
549,montepuez,-13.1256,38.9997,295.8,84,43,2.99,MZ,1699653125
550,yatou,37.15,122.3833,276.89,58,100,7.57,CN,1699653125
551,vorkuta,67.5,64.0,257.73,100,80,1.1,RU,1699653125
552,santa elena de uairen,4.6167,-61.1333,297.47,63,85,0.92,VE,1699653125
553,marsh harbour,26.5412,-77.0636,299.45,73,5,5.26,BS,1699653126
554,trairi,-3.2778,-39.2689,299.57,75,5,5.96,BR,1699653122
555,sechura,-5.5569,-80.8222,297.52,59,18,7.49,PE,1699653126
556,gobabis,-22.45,18.9667,299.67,24,90,3.85,NA,1699653109
557,kushiro,42.975,144.3747,276.05,66,28,13.06,JP,1699653126
558,labrador city,52.9463,-66.9114,268.1,74,100,3.09,CA,1699653127
559,huittinen,61.1833,22.7,279.66,98,100,1.57,FI,1699653127
560,ulladulla,-35.35,150.4667,296.25,61,16,4.35,AU,1699653127
561,geneina,13.45,22.45,297.82,27,61,4.03,SD,1699653127
562,casino,-28.8667,153.05,291.8,83,54,0.58,AU,1699653128
563,lagoa,39.05,-27.9833,293.31,87,100,13.69,PT,1699653128
564,mirriah,13.7073,9.1501,299.87,16,89,4.02,NE,1699653128
565,bambui,-20.0064,-45.9769,299.59,31,6,2.95,BR,1699653129
566,nishinoomote,30.7333,131.0,293.36,78,100,2.02,JP,1699653129
567,kingston,17.997,-76.7936,304.68,74,20,10.8,JM,1699653066
568,amursk,50.2261,136.8994,267.58,83,100,2.44,RU,1699653129
569,mao,39.8885,4.2658,289.46,63,0,3.6,ES,1699653130
570,verkhnevilyuysk,63.4453,120.3167,252.98,100,99,1.34,RU,1699653130
571,yelan'-koleno,51.1523,41.2306,276.92,91,11,2.57,RU,1699653130
572,shakiso,5.75,38.9167,287.2,92,96,1.45,ET,1699653130
573,santo antonio do ica,-3.1022,-67.9397,299.15,86,100,0.29,BR,1699653131
574,karkira,36.9292,6.5856,290.39,74,15,6.73,DZ,1699653131
575,sunbury,-37.5833,144.7333,300.32,52,0,8.75,AU,1699653131
576,pyu,18.4833,96.4333,296.01,97,53,2.1,MM,1699653131
577,buritis,-15.6178,-46.4233,303.04,27,43,2.31,BR,1699653131
578,burang,30.25,81.1667,269.17,76,34,1.96,CN,1699653132
579,beypore,11.1833,75.8167,297.73,94,20,1.54,IN,1699653132
580,amory,33.9843,-88.4881,289.6,76,100,4.12,US,1699653132
581,trebon,49.0036,14.7707,279.36,89,99,2.06,CZ,1699653132
582,ust'-kulom,61.6864,53.6902,273.31,91,100,2.4,RU,1699653132
583,nova xavantina,-14.6667,-52.35,305.92,24,22,1.63,BR,1699653133
584,uige,-7.6087,15.0613,292.87,98,100,0.42,AO,1699653133
585,kalmunai,7.4167,81.8167,298.59,87,17,1.35,LK,1699653133
586,agua dulce,18.1333,-94.1333,300.01,76,6,4.03,MX,1699653133
